{
  "alabama": [
    {
      "name": "Birmingham Zoo",
      "url": "https://www.birminghamzoo.com/",
      "city": "Birmingham",
      "type": "zoo",
      "size": "medium",
      "notable_features": [
        "Red Diamond Splash Pad",
        "Alabama Wilds",
        "Trails of Africa"
      ],
      "admission_required": true,
      "hours": "Today's Regular Hours: 9:00 am - 5:00 pm",
      "phone": "205-879-0409",
      "admission_price": "",
      "website_events_url": "",
      "annual_attendance": null,
      "founded_year": ""
    },
    {
      "name": "Montgomery Zoo",
      "url": "https://www.montgomeryzoo.com/",
      "city": "Montgomery",
      "type": "zoo",
      "size": "medium",
      "notable_features": [
        "Mann Wildlife Learning Museum",
        "Overlook Cafe",
        "Train rides"
      ],
      "admission_required": true,
      "hours": "ZOO OPEN DAILY 9:30am - 4:30pm, LAST entry 3:30pm Wildlife adventure, family fun, and educational experiences daily at the Montgomery Zoo and Mann Wildlife Learning Museum. Open daily 9:30am - 4:30pm,...",
      "phone": "334-625-4900",
      "admission_price": "",
      "website_events_url": "",
      "annual_attendance": null,
      "founded_year": ""
    },
    {
      "name": "Gulf Coast Zoo",
      "url": "https://www.gulfcoastzoo.org/",
      "city": "Gulf Shores",
      "type": "zoo",
      "size": "small",
      "notable_features": [
        "Interactive experiences",
        "Educational programs"
      ],
      "admission_required": true,
      "hours": "",
      "phone": "",
      "admission_price": "",
      "website_events_url": "",
      "annual_attendance": null,
      "founded_year": ""
    }
  ],
  "alaska": [
    {
      "name": "Alaska Zoo",
      "url": "https://www.alaskazoo.org/",
      "city": "Anchorage",
      "type": "zoo",
      "size": "medium",
      "notable_features": [
        "Polar bears",
        "Arctic animals",
        "Brown bears"
      ],
      "admission_required": true,
      "hours": "",
      "phone": "(907) 346-2133",
      "admission_price": "",
      "website_events_url": "",
      "annual_attendance": null,
      "founded_year": "1969"
    },
    {
      "name": "Alaska Wildlife Conservation Center",
      "url": "https://www.alaskawildlife.org/",
      "city": "Girdwood",
      "type": "wildlife_park",
      "size": "large",
      "notable_features": [
        "Wildlife rehabilitation",
        "Drive-through viewing",
        "Native Alaskan species"
      ],
      "admission_required": true,
      "hours": "March & April Open 7 days per week10am \u2013 6pmLast entry at 5pm May - September 15 Open 7 days per week8:30am \u2013 7pmLast entry at 6pm",
      "phone": "907-783-0058",
      "admission_price": "",
      "website_events_url": "",
      "annual_attendance": null,
      "founded_year": ""
    }
  ],
  "arizona": [
    {
      "name": "Phoenix Zoo",
      "url": "https://www.phoenixzoo.org/",
      "city": "Phoenix",
      "type": "zoo",
      "size": "large",
      "notable_features": [
        "Desert animals",
        "Conservation programs",
        "ZooLights winter event"
      ],
      "admission_required": true,
      "hours": "",
      "phone": "602.286.3800",
      "admission_price": "",
      "website_events_url": "",
      "annual_attendance": null,
      "founded_year": "1962"
    },
    {
      "name": "Reid Park Zoo",
      "url": "https://reidparkzoo.org/",
      "city": "Tucson",
      "type": "zoo",
      "size": "medium",
      "notable_features": [
        "Elephant care center",
        "African animals",
        "Conservation education"
      ],
      "admission_required": true,
      "hours": "",
      "phone": "(520) 791-3204",
      "admission_price": "",
      "website_events_url": "",
      "annual_attendance": null,
      "founded_year": "1965"
    },
    {
      "name": "Arizona-Sonora Desert Museum",
      "url": "https://www.desertmuseum.org/",
      "city": "Tucson",
      "type": "wildlife_park",
      "size": "large",
      "notable_features": [
        "Desert ecosystem",
        "Natural habitat exhibits",
        "Outdoor trails"
      ],
      "admission_required": true,
      "hours": "OPEN TODAY 8:30 AM TO 5:00 PM",
      "phone": "520.883.2702",
      "admission_price": "",
      "website_events_url": "",
      "annual_attendance": null,
      "founded_year": "1952"
    },
    {
      "name": "Wildlife World Zoo",
      "url": "https://wildlifeworld.com/",
      "city": "Litchfield Park",
      "type": "zoo",
      "size": "large",
      "notable_features": [
        "Aquarium",
        "Safari train",
        "Skyride"
      ],
      "admission_required": true,
      "hours": "Zoo: 8:00 am - 4:00 pm Aquarium: 8:00 am - 5:00 pmZoo MapCLICK HERE For a Money Saving Coupon!Welcome to Wildlife World Zoo, where visitors will experience a safari-like adventure like no other. Our p...",
      "phone": "623-935-9453",
      "admission_price": "",
      "website_events_url": "",
      "annual_attendance": null,
      "founded_year": ""
    }
  ],
  "arkansas": [
    {
      "name": "Little Rock Zoo",
      "url": "https://www.littlerockzoo.com/",
      "city": "Little Rock",
      "type": "zoo",
      "size": "medium",
      "notable_features": [
        "Arkansas Carousel",
        "Great Ape House",
        "Penguin Pointe"
      ],
      "admission_required": true,
      "hours": "1 Zoo DriveLittle Rock, AR 72205 Tel:501-661-7200 Hours of Operation 9:00 a.m. \u2013 4:00 p.m. Last Admission 3:30 pm Zoo grounds close 4:00pm",
      "phone": "501-661-7200",
      "admission_price": "",
      "website_events_url": "",
      "annual_attendance": null,
      "founded_year": "1924"
    },
    {
      "name": "Turpentine Creek Wildlife Refuge",
      "url": "https://www.turpentinecreek.org/",
      "city": "Eureka Springs",
      "type": "wildlife_refuge",
      "size": "large",
      "notable_features": [
        "Big cat sanctuary",
        "Rescue operations",
        "Educational tours"
      ],
      "admission_required": true,
      "hours": "General Hours9:00am4:00pm General Hours (DST)9:00am5:00pm",
      "phone": "(479) 253-5841",
      "admission_price": "",
      "website_events_url": "",
      "annual_attendance": null,
      "founded_year": "1992"
    }
  ],
  "california": [
    {
      "name": "San Diego Zoo",
      "url": "https://zoo.sandiegozoo.org/",
      "city": "San Diego",
      "type": "zoo",
      "size": "large",
      "notable_features": [
        "World famous",
        "Conservation research",
        "Pandas",
        "Skyfari gondolas"
      ],
      "admission_required": true,
      "hours": "ZOO HOURS\u25b8TODAY: 9:00 am \u2013 6:00 pm",
      "phone": "",
      "admission_price": "",
      "website_events_url": "",
      "annual_attendance": null,
      "founded_year": ""
    },
    {
      "name": "San Diego Zoo Safari Park",
      "url": "https://safaripark.sandiegozoo.org/",
      "city": "Escondido",
      "type": "safari_park",
      "size": "large",
      "notable_features": [
        "Open-range exhibits",
        "Safari tours",
        "Breeding programs"
      ],
      "admission_required": true,
      "hours": "",
      "phone": "",
      "admission_price": "",
      "website_events_url": "",
      "annual_attendance": null,
      "founded_year": ""
    },
    {
      "name": "Los Angeles Zoo",
      "url": "https://www.lazoo.org/",
      "city": "Los Angeles",
      "type": "zoo",
      "size": "large",
      "notable_features": [
        "Griffith Park location",
        "LAIR exhibit",
        "California condors"
      ],
      "admission_required": true,
      "hours": "",
      "phone": "(323) 644-4200",
      "admission_price": "",
      "website_events_url": "",
      "annual_attendance": null,
      "founded_year": ""
    },
    {
      "name": "San Francisco Zoo",
      "url": "https://www.sfzoo.org/",
      "city": "San Francisco",
      "type": "zoo",
      "size": "medium",
      "notable_features": [
        "Ocean views",
        "Penguin exhibit",
        "Historic carousel"
      ],
      "admission_required": true,
      "hours": "Print or view a Zoo Map before your visit Hours 10:00 a.m. \u2013 5:00 p.m. Last Entry 4:00 pm",
      "phone": "(415) 753-7080",
      "admission_price": "",
      "website_events_url": "",
      "annual_attendance": null,
      "founded_year": ""
    },
    {
      "name": "Oakland Zoo",
      "url": "https://www.oaklandzoo.org/",
      "city": "Oakland",
      "type": "zoo",
      "size": "medium",
      "notable_features": [
        "Gondola ride",
        "California Trail",
        "Conservation programs"
      ],
      "admission_required": true,
      "hours": "Advanced ticket reservations to visit Oakland Zoo are required for General Admission. LEARN MORE >>TicketsDonateSearchVisitTicketsHours and PricingBecome a MemberGroup ReservationsExplore the ZooDinin...",
      "phone": "(510) 632-9525",
      "admission_price": "",
      "website_events_url": "",
      "annual_attendance": null,
      "founded_year": ""
    },
    {
      "name": "Sacramento Zoo",
      "url": "https://www.saczoo.org/",
      "city": "Sacramento",
      "type": "zoo",
      "size": "small",
      "notable_features": [
        "Fairytale Town nearby",
        "Reptile house",
        "Education center"
      ],
      "admission_required": true,
      "hours": "Zoo Hours Entry: 9 am to 4 pm Grounds open until 5 pm NOTE for Oct. 26: The zoo will close early at 1:30 pm for event preparations. Winter Hours:The zoo will close early at 3 pm from Nov. 3 through Ja...",
      "phone": "916-808-5888",
      "admission_price": "",
      "website_events_url": "",
      "annual_attendance": null,
      "founded_year": "1975"
    },
    {
      "name": "Fresno Chaffee Zoo",
      "url": "https://www.fresnochaffeezoo.org/",
      "city": "Fresno",
      "type": "zoo",
      "size": "medium",
      "notable_features": [
        "African Adventure",
        "Sea Lion Cove",
        "Reptile house"
      ],
      "admission_required": true,
      "hours": "Get directions Our office hours are from 8am to 5:00pm Monday through Friday. Questions?",
      "phone": "1810644736",
      "admission_price": "",
      "website_events_url": "",
      "annual_attendance": null,
      "founded_year": "1929"
    }
  ],
  "colorado": [
    {
      "name": "Denver Zoo",
      "url": "https://denverzoo.org/",
      "city": "Denver",
      "type": "zoo",
      "size": "large",
      "notable_features": [
        "City Park location",
        "Conservation research",
        "Interactive exhibits"
      ],
      "admission_required": true,
      "hours": "Denver Zoo Directory For general questions, comments, membership questions and other inquiries, please email guestcare@denverzoo.org, call 720-337-1400 or use our Chat With Us services on this website...",
      "phone": "1808322958",
      "admission_price": "",
      "website_events_url": "",
      "annual_attendance": null,
      "founded_year": "1996"
    },
    {
      "name": "Cheyenne Mountain Zoo",
      "url": "https://www.cmzoo.org/",
      "city": "Colorado Springs",
      "type": "zoo",
      "size": "medium",
      "notable_features": [
        "Mountain location",
        "Giraffe feeding",
        "Scenic chairlift"
      ],
      "admission_required": true,
      "hours": "Zoo Holiday Hours: 9 a.m. \u2013 3 p.m. \u2022 Thanksgiving Day: 9 a.m. \u2013 3 p.m., last timed tickets 1 p.m., last Sky Ride (if open) 1:30 p.m., Shrine is closed. \u2022 Christmas Eve: 9 a.m. \u2013 3 p.m., last timed tic...",
      "phone": "(719) 633-9925",
      "admission_price": "",
      "website_events_url": "",
      "annual_attendance": null,
      "founded_year": "1937"
    },
    {
      "name": "Pueblo Zoo",
      "url": "https://www.pueblozoo.org/",
      "city": "Pueblo",
      "type": "zoo",
      "size": "small",
      "notable_features": [
        "Eco-Center",
        "Native wildlife",
        "Educational programs"
      ],
      "admission_required": true,
      "hours": "Presented by:Click here for tickets and information!Anchor 1NEWS & ACTIVITIES\u200b\u200b\u200b Fall and Winter hours are now in effect. Open 7 days a week, 9 AM to 4 PM, last admission at 3 PM. ZooBoo tickets are n...",
      "phone": "719-561-1452",
      "admission_price": "",
      "website_events_url": "",
      "annual_attendance": null,
      "founded_year": ""
    }
  ],
  "connecticut": [
    {
      "name": "Beardsley Zoo",
      "url": "https://www.beardsleyzoo.org/",
      "city": "Bridgeport",
      "type": "zoo",
      "size": "small",
      "notable_features": [
        "New England farmyard",
        "South American rainforest",
        "Carousel"
      ],
      "admission_required": true,
      "hours": "The Zoo is open daily from 9:00am - 4:00pm.(Last ticket sold at 3:00 PM) PURCHASE ZOO TICKETS",
      "phone": "203-394-6565",
      "admission_price": "",
      "website_events_url": "",
      "annual_attendance": null,
      "founded_year": ""
    },
    {
      "name": "Mystic Aquarium",
      "url": "https://www.mysticaquarium.org/",
      "city": "Mystic",
      "type": "aquarium",
      "size": "medium",
      "notable_features": [
        "Beluga whales",
        "Sea lions",
        "Marine research"
      ],
      "admission_required": true,
      "hours": "",
      "phone": "(860) 572-5955",
      "admission_price": "",
      "website_events_url": "",
      "annual_attendance": null,
      "founded_year": ""
    }
  ],
  "delaware": [
    {
      "name": "Brandywine Zoo",
      "url": "https://www.brandywinezoo.org/",
      "city": "Wilmington",
      "type": "zoo",
      "size": "small",
      "notable_features": [
        "River otters",
        "Andean bears",
        "Conservation focus"
      ],
      "admission_required": true,
      "hours": "The Brandywine Zoo is less than five acres and located in Wilmington, Delaware, along the Brandywine River in beautiful Brandywine Park. The Zoo is open 10am to 4pm (last admission at 3:30pm). The Bra...",
      "phone": "302-571-7788",
      "admission_price": "",
      "website_events_url": "",
      "annual_attendance": null,
      "founded_year": ""
    }
  ],
  "district of columbia": [
    {
      "name": "Smithsonian National Zoo",
      "url": "https://nationalzoo.si.edu/",
      "city": "Washington",
      "type": "zoo",
      "size": "large",
      "notable_features": [
        "Giant pandas",
        "Free admission",
        "Conservation research",
        "Smithsonian Institution"
      ],
      "admission_required": false,
      "hours": "",
      "phone": "202-633-2614",
      "admission_price": "",
      "website_events_url": "",
      "annual_attendance": null,
      "founded_year": "1889"
    }
  ],
  "florida": [
    {
      "name": "Zoo Miami",
      "url": "https://www.zoomiami.org/",
      "city": "Miami",
      "type": "zoo",
      "size": "large",
      "notable_features": [
        "Cageless exhibits",
        "Monorail",
        "Amazon rainforest exhibit"
      ],
      "admission_required": true,
      "hours": "",
      "phone": "(305) 251-0400",
      "admission_price": "",
      "website_events_url": "",
      "annual_attendance": null,
      "founded_year": ""
    },
    {
      "name": "Busch Gardens Tampa Bay",
      "url": "https://buschgardens.com/tampa/",
      "city": "Tampa",
      "type": "theme_park_zoo",
      "size": "large",
      "notable_features": [
        "Roller coasters",
        "African animals",
        "SeaWorld partnership"
      ],
      "admission_required": true,
      "hours": "",
      "phone": "",
      "admission_price": "",
      "website_events_url": "",
      "annual_attendance": null,
      "founded_year": ""
    },
    {
      "name": "Central Florida Zoo",
      "url": "https://www.centralfloridazoo.org/",
      "city": "Sanford",
      "type": "zoo",
      "size": "medium",
      "notable_features": [
        "Zoom Air adventure course",
        "Barnyard Buddies",
        "Conservation programs"
      ],
      "admission_required": true,
      "hours": "",
      "phone": "407.323.4450",
      "admission_price": "",
      "website_events_url": "",
      "annual_attendance": null,
      "founded_year": ""
    },
    {
      "name": "Jacksonville Zoo",
      "url": "https://www.jacksonvillezoo.org/",
      "city": "Jacksonville",
      "type": "zoo",
      "size": "large",
      "notable_features": [
        "Range of the Jaguar",
        "Gardens",
        "Splash Ground"
      ],
      "admission_required": true,
      "hours": "Hours: 9 a.m. \u2013 5 p.m. daily (With the exception of Thanksgiving Day and Christmas Day.) Day-of ticket sales close at 4 p.m. Last entry allowed at 4:30 p.m.",
      "phone": "2940213623",
      "admission_price": "",
      "website_events_url": "",
      "annual_attendance": null,
      "founded_year": "1914"
    },
    {
      "name": "Palm Beach Zoo",
      "url": "https://www.palmbeachzoo.org/",
      "city": "West Palm Beach",
      "type": "zoo",
      "size": "medium",
      "notable_features": [
        "Interactive fountain",
        "Malayan tiger exhibit",
        "Conservation programs"
      ],
      "admission_required": true,
      "hours": "Hours We are open from 9:00am - 5:00pm every day of the year except Christmas and Thanksgiving Day. The Last Ticket is Sold at 4:15pm",
      "phone": "(561) 547-9453",
      "admission_price": "",
      "website_events_url": "",
      "annual_attendance": null,
      "founded_year": ""
    },
    {
      "name": "ZooTampa at Lowry Park",
      "url": "https://www.zootampa.org/",
      "city": "Tampa",
      "type": "zoo",
      "size": "large",
      "notable_features": [
        "Manatee rescue",
        "Roaring Springs",
        "Florida wildlife"
      ],
      "admission_required": true,
      "hours": "",
      "phone": "",
      "admission_price": "",
      "website_events_url": "",
      "annual_attendance": null,
      "founded_year": ""
    }
  ],
  "georgia": [
    {
      "name": "Zoo Atlanta",
      "url": "https://zooatlanta.org/",
      "city": "Atlanta",
      "type": "zoo",
      "size": "large",
      "notable_features": [
        "Giant pandas",
        "Gorilla breeding program",
        "Conservation research"
      ],
      "admission_required": true,
      "hours": "Zoo Atlanta is open all year long, closed only on Thanksgiving and Christmas. Zoo Hours (through October 31, 2025): Monday \u2013 Friday: 9 a.m. \u2013 5 p.m. Last entry is 3:30 p.m. Saturday and Sunday: 9 a.m....",
      "phone": "404-624-9453",
      "admission_price": "",
      "website_events_url": "",
      "annual_attendance": null,
      "founded_year": "1995"
    },
    {
      "name": "Wild Adventures",
      "url": "https://www.wildadventures.com/",
      "city": "Valdosta",
      "type": "theme_park_zoo",
      "size": "medium",
      "notable_features": [
        "Roller coasters",
        "Water park",
        "Animal exhibits"
      ],
      "admission_required": true,
      "hours": "",
      "phone": "",
      "admission_price": "",
      "website_events_url": "",
      "annual_attendance": null,
      "founded_year": ""
    }
  ],
  "hawaii": [
    {
      "name": "Honolulu Zoo",
      "url": "https://www.honoluluzoo.org/",
      "city": "Honolulu",
      "type": "zoo",
      "size": "medium",
      "notable_features": [
        "Waikiki location",
        "Pacific islands animals",
        "Keiki Zoo"
      ],
      "admission_required": true,
      "hours": "About UsHonolulu Zoo is the only zoo in the US that originatedin a King's grant of royal lands.Address151 Kapahulu AvenueHonolulu, Hawaii 96815Google Map LinkContactsHZS Office Hours: 9:00 am - 4:30 p...",
      "phone": "(808) 926-3191",
      "admission_price": "",
      "website_events_url": "",
      "annual_attendance": null,
      "founded_year": ""
    }
  ],
  "idaho": [
    {
      "name": "Zoo Boise",
      "url": "https://zooboise.org/",
      "city": "Boise",
      "type": "zoo",
      "size": "small",
      "notable_features": [
        "Native Idaho animals",
        "Conservation education",
        "Playground"
      ],
      "admission_required": true,
      "hours": "",
      "phone": "(208) 608-7760",
      "admission_price": "",
      "website_events_url": "",
      "annual_attendance": null,
      "founded_year": ""
    },
    {
      "name": "Tautphaus Park Zoo",
      "url": "https://www.idahofallsidaho.gov/facilities/facility/details/Tautphaus-Park-Zoo-5",
      "city": "Idaho Falls",
      "type": "zoo",
      "size": "small",
      "notable_features": [
        "Family friendly",
        "Local wildlife focus",
        "Educational programs"
      ],
      "admission_required": true,
      "hours": "Hours M - F 5:00 AM \u2014 11:00 PM",
      "phone": "(208) 612-8580",
      "admission_price": "",
      "website_events_url": "",
      "annual_attendance": null,
      "founded_year": ""
    }
  ],
  "illinois": [
    {
      "name": "Lincoln Park Zoo",
      "url": "https://www.lpzoo.org/",
      "city": "Chicago",
      "type": "zoo",
      "size": "medium",
      "notable_features": [
        "Free admission",
        "Urban location",
        "Great apes",
        "Farm-in-the-Zoo"
      ],
      "admission_required": false,
      "hours": "Current Hours Daily Hours 8 a.m. \u2013 Gates and Farm-in-the-Zoo open 10 a.m. \u2013 Buildings open 4:30 p.m. \u2013 Buildings and Farm-in-the-Zoo close",
      "phone": "312-742-2000",
      "admission_price": "",
      "website_events_url": "",
      "annual_attendance": null,
      "founded_year": "1868"
    },
    {
      "name": "Brookfield Zoo",
      "url": "https://www.czs.org/",
      "city": "Brookfield",
      "type": "zoo",
      "size": "large",
      "notable_features": [
        "Desert Dome",
        "Great Bear Wilderness",
        "Conservation research"
      ],
      "admission_required": true,
      "hours": "Welcome! Our current hours are 10:00 a.m. to 5:00 p.m. on weekdays and 10:00 a.m. to 6:00 p.m. on weekends. purchase TICKETS",
      "phone": "312-836-7000",
      "admission_price": "",
      "website_events_url": "",
      "annual_attendance": null,
      "founded_year": ""
    },
    {
      "name": "Miller Park Zoo",
      "url": "https://www.bloomingtonparks.org/miller-park-zoo",
      "city": "Bloomington",
      "type": "zoo",
      "size": "small",
      "notable_features": [
        "ZooLab discovery center",
        "Wallaby walkabout",
        "Educational focus"
      ],
      "admission_required": true,
      "hours": "",
      "phone": "",
      "admission_price": "",
      "website_events_url": "",
      "annual_attendance": null,
      "founded_year": ""
    }
  ],
  "indiana": [
    {
      "name": "Indianapolis Zoo",
      "url": "https://www.indianapoliszoo.com/",
      "city": "Indianapolis",
      "type": "zoo",
      "size": "large",
      "notable_features": [
        "Dolphin pavilion",
        "Simon Skjodt International Orangutan Center",
        "White River Gardens"
      ],
      "admission_required": true,
      "hours": "",
      "phone": "(317) 630-2001",
      "admission_price": "",
      "website_events_url": "",
      "annual_attendance": null,
      "founded_year": "2020"
    },
    {
      "name": "Fort Wayne Children's Zoo",
      "url": "https://kidszoo.org/",
      "city": "Fort Wayne",
      "type": "zoo",
      "size": "medium",
      "notable_features": [
        "Children focused",
        "Interactive experiences",
        "Australian Adventure"
      ],
      "admission_required": true,
      "hours": "Thursday, Oct 16 Open 9:00 a.m. to 5:00 p.m. Today's Online Ticket Price $20",
      "phone": "(260) 427-6800",
      "admission_price": "",
      "website_events_url": "",
      "annual_attendance": null,
      "founded_year": ""
    },
    {
      "name": "Mesker Park Zoo",
      "url": "https://www.meskerparkzoo.com/",
      "city": "Evansville",
      "type": "zoo",
      "size": "medium",
      "notable_features": [
        "Amazonia",
        "Botanic Garden",
        "Conservation programs"
      ],
      "admission_required": true,
      "hours": "To ensure your visit to Mesker Park Zoo is as enjoyable as possible, here are some recommendations: Check the Weather: Indiana weather can be unpredictable. Dress in layers and bring sunscreen, hats, ...",
      "phone": "1800615844",
      "admission_price": "",
      "website_events_url": "",
      "annual_attendance": null,
      "founded_year": ""
    }
  ],
  "iowa": [
    {
      "name": "Blank Park Zoo",
      "url": "https://www.blankparkzoo.com/",
      "city": "Des Moines",
      "type": "zoo",
      "size": "medium",
      "notable_features": [
        "Sea lion shows",
        "Discovery Center",
        "Train rides"
      ],
      "admission_required": true,
      "hours": "",
      "phone": "515.285.4722",
      "admission_price": "",
      "website_events_url": "",
      "annual_attendance": null,
      "founded_year": ""
    }
  ],
  "kansas": [
    {
      "name": "Sedgwick County Zoo",
      "url": "https://scz.org/",
      "city": "Wichita",
      "type": "zoo",
      "size": "large",
      "notable_features": [
        "Downing Gorilla Forest",
        "Koch Penguin & Sea Lion Cove",
        "Conservation research"
      ],
      "admission_required": true,
      "hours": "Do you have a gift shop? Yes! Our Zoo Store is located in the entry plaza. We offer a full selection of Sedgwick County Zoo merchandise, plush, books, educational toys and much more. Open 8:30 AM to 5...",
      "phone": "(316) 660-9453",
      "admission_price": "",
      "website_events_url": "",
      "annual_attendance": null,
      "founded_year": ""
    },
    {
      "name": "Topeka Zoo",
      "url": "https://www.topekazoo.org/",
      "city": "Topeka",
      "type": "zoo",
      "size": "small",
      "notable_features": [
        "Tropical Rain Forest",
        "Lions Pride",
        "Conservation education"
      ],
      "admission_required": true,
      "hours": "General Hours of Operation 9 a.m. to 5 p.m. Hours subject to change during Zoo Lights. No admission after 4:30 p.m.",
      "phone": "785-368-9180",
      "admission_price": "",
      "website_events_url": "",
      "annual_attendance": null,
      "founded_year": ""
    }
  ],
  "kentucky": [
    {
      "name": "Louisville Zoo",
      "url": "https://www.louisvillezoo.org/",
      "city": "Louisville",
      "type": "zoo",
      "size": "large",
      "notable_features": [
        "African Outpost",
        "Glacier Run",
        "HerpAquarium"
      ],
      "admission_required": true,
      "hours": "Home | Louisville Zoo English Thanks for visiting the Louisville Zoo website!We see you're using Internet Explorer to browse. For the best website navigation and functionality, we recommend switching ...",
      "phone": "(502) 459-2181",
      "admission_price": "",
      "website_events_url": "",
      "annual_attendance": null,
      "founded_year": ""
    },
    {
      "name": "Newport Aquarium",
      "url": "https://www.newportaquarium.com/",
      "city": "Newport",
      "type": "aquarium",
      "size": "medium",
      "notable_features": [
        "Shark Ray Bay Theater",
        "Surrounded by Sharks tunnel",
        "Interactive exhibits"
      ],
      "admission_required": true,
      "hours": "",
      "phone": "800-406-3474",
      "admission_price": "",
      "website_events_url": "",
      "annual_attendance": null,
      "founded_year": "1999"
    }
  ],
  "louisiana": [
    {
      "name": "Audubon Zoo",
      "url": "https://audubonnatureinstitute.org/zoo",
      "city": "New Orleans",
      "type": "zoo",
      "size": "large",
      "notable_features": [
        "Louisiana Swamp exhibit",
        "Jaguar Jungle",
        "World of Primates"
      ],
      "admission_required": true,
      "hours": "Hours \ud83d\udd14 Winter Hours Now in Effect Open Thursday \u2013 Monday 10AM - 5PMLast ticket sold at 4:00PMClosed Tuesday \u2013 Wednesday See all Hours",
      "phone": "800-774-7394",
      "admission_price": "",
      "website_events_url": "",
      "annual_attendance": null,
      "founded_year": ""
    },
    {
      "name": "Alexandria Zoo",
      "url": "https://www.thealexandriazoo.com/",
      "city": "Alexandria",
      "type": "zoo",
      "size": "small",
      "notable_features": [
        "Louisiana Habitat Trail",
        "Educational programs",
        "Native species focus"
      ],
      "admission_required": true,
      "hours": "Regular Hours MON Oct 13 9 AM - 5 PM Last Entry 4:30 PM",
      "phone": "318 441 6810",
      "admission_price": "",
      "website_events_url": "",
      "annual_attendance": null,
      "founded_year": ""
    }
  ],
  "maine": [
    {
      "name": "Maine Wildlife Park",
      "url": "https://www.maine.gov/ifw/wildlife-park/",
      "city": "Gray",
      "type": "wildlife_park",
      "size": "small",
      "notable_features": [
        "Native Maine animals",
        "Wildlife rehabilitation",
        "Educational programs"
      ],
      "admission_required": true,
      "hours": "",
      "phone": "(207) 822-6460",
      "admission_price": "",
      "website_events_url": "",
      "annual_attendance": null,
      "founded_year": ""
    }
  ],
  "maryland": [
    {
      "name": "Maryland Zoo",
      "url": "https://www.marylandzoo.org/",
      "city": "Baltimore",
      "type": "zoo",
      "size": "large",
      "notable_features": [
        "African Journey",
        "Polar Bear Watch",
        "Conservation programs"
      ],
      "admission_required": true,
      "hours": "Closed Now Opens Fri., Oct. 17th Open 10:00AM to 4:00PM 10AM Open",
      "phone": "410-396-7102",
      "admission_price": "",
      "website_events_url": "",
      "annual_attendance": null,
      "founded_year": ""
    },
    {
      "name": "National Aquarium",
      "url": "https://www.aqua.org/",
      "city": "Baltimore",
      "type": "aquarium",
      "size": "large",
      "notable_features": [
        "Blacktip Reef",
        "Rainforest exhibit",
        "Marine conservation"
      ],
      "admission_required": true,
      "hours": "",
      "phone": "410-576-3800",
      "admission_price": "",
      "website_events_url": "",
      "annual_attendance": null,
      "founded_year": "1873"
    }
  ],
  "massachusetts": [
    {
      "name": "Franklin Park Zoo",
      "url": "https://www.zoonewengland.org/franklin-park-zoo/",
      "city": "Boston",
      "type": "zoo",
      "size": "medium",
      "notable_features": [
        "Tropical Forest",
        "Outback Trail",
        "Giraffe Savannah"
      ],
      "admission_required": true,
      "hours": "Today at the Zoo Zoo Hours: 9am - 4pm | Boston Lights 5 - 10:30pm Franklin Farm Chat",
      "phone": "",
      "admission_price": "",
      "website_events_url": "",
      "annual_attendance": null,
      "founded_year": ""
    },
    {
      "name": "Stone Zoo",
      "url": "https://www.zoonewengland.org/stone-zoo/",
      "city": "Stoneham",
      "type": "zoo",
      "size": "small",
      "notable_features": [
        "Yukon Creek",
        "Himalayan Bears",
        "Conservation focus"
      ],
      "admission_required": true,
      "hours": "",
      "phone": "",
      "admission_price": "",
      "website_events_url": "",
      "annual_attendance": null,
      "founded_year": ""
    }
  ],
  "michigan": [
    {
      "name": "Detroit Zoo",
      "url": "https://detroitzoo.org/",
      "city": "Royal Oak",
      "type": "zoo",
      "size": "large",
      "notable_features": [
        "Arctic Ring of Life",
        "Great Apes of Harambee",
        "Amphibiville"
      ],
      "admission_required": true,
      "hours": "",
      "phone": "",
      "admission_price": "",
      "website_events_url": "",
      "annual_attendance": null,
      "founded_year": ""
    },
    {
      "name": "Potter Park Zoo",
      "url": "https://potterparkzoo.org/",
      "city": "Lansing",
      "type": "zoo",
      "size": "medium",
      "notable_features": [
        "Black rhinos",
        "Snow leopards",
        "Conservation education"
      ],
      "admission_required": true,
      "hours": "",
      "phone": "(517) 483-4222",
      "admission_price": "",
      "website_events_url": "",
      "annual_attendance": null,
      "founded_year": ""
    },
    {
      "name": "John Ball Zoo",
      "url": "https://www.jbzoo.org/",
      "city": "Grand Rapids",
      "type": "zoo",
      "size": "medium",
      "notable_features": [
        "Zip line adventure",
        "Living Shores Aquarium",
        "Conservation programs"
      ],
      "admission_required": true,
      "hours": "",
      "phone": "",
      "admission_price": "",
      "website_events_url": "",
      "annual_attendance": null,
      "founded_year": ""
    }
  ],
  "minnesota": [
    {
      "name": "Minnesota Zoo",
      "url": "https://mnzoo.org/",
      "city": "Apple Valley",
      "type": "zoo",
      "size": "large",
      "notable_features": [
        "Northern Trail",
        "Tropics Trail",
        "Conservation research"
      ],
      "admission_required": true,
      "hours": "Fall Fun Jack-O-Lantern Spectacular A Fall tradition like no other! Thousands of glowing pumpkins light up the newly expanded trail! Do not miss! Fall In Love with the Minnesota Zoo Crisp air, golden ...",
      "phone": "952.431.9200",
      "admission_price": "",
      "website_events_url": "",
      "annual_attendance": null,
      "founded_year": ""
    },
    {
      "name": "Como Park Zoo",
      "url": "https://comozooconservatory.org/",
      "city": "Saint Paul",
      "type": "zoo",
      "size": "medium",
      "notable_features": [
        "Free admission",
        "Conservatory attached",
        "Marjorie McNeely Conservatory"
      ],
      "admission_required": false,
      "hours": "Opening Hours Monday 10:00 am \u2013 4:00 pm",
      "phone": "651-487-8201",
      "admission_price": "",
      "website_events_url": "",
      "annual_attendance": null,
      "founded_year": ""
    }
  ],
  "mississippi": [
    {
      "name": "Jackson Zoo",
      "url": "https://jacksonzoo.org/",
      "city": "Jackson",
      "type": "zoo",
      "size": "medium",
      "notable_features": [
        "Mississippi wilderness",
        "Discovery Zone",
        "Conservation programs"
      ],
      "admission_required": true,
      "hours": "",
      "phone": "",
      "admission_price": "",
      "website_events_url": "",
      "annual_attendance": null,
      "founded_year": ""
    },
    {
      "name": "Hattiesburg Zoo",
      "url": "https://hattiesburgzoo.com/",
      "city": "Hattiesburg",
      "type": "zoo",
      "size": "small",
      "notable_features": [
        "Train rides",
        "Carousel",
        "Educational programs"
      ],
      "admission_required": true,
      "hours": "",
      "phone": "",
      "admission_price": "",
      "website_events_url": "",
      "annual_attendance": null,
      "founded_year": ""
    }
  ],
  "missouri": [
    {
      "name": "Saint Louis Zoo",
      "url": "https://www.stlzoo.org/",
      "city": "Saint Louis",
      "type": "zoo",
      "size": "large",
      "notable_features": [
        "Free admission",
        "Penguin & Puffin Coast",
        "World-class reputation"
      ],
      "admission_required": false,
      "hours": "",
      "phone": "",
      "admission_price": "",
      "website_events_url": "",
      "annual_attendance": null,
      "founded_year": ""
    },
    {
      "name": "Kansas City Zoo",
      "url": "https://www.kansascityzoo.org/",
      "city": "Kansas City",
      "type": "zoo",
      "size": "large",
      "notable_features": [
        "Africa exhibit",
        "Stingray Bay",
        "Conservation Carousel"
      ],
      "admission_required": true,
      "hours": "Home | Kansas City Zoo & AquariumVisitZoo MapTicketsDiningRides & TransportationHours, Locations & ParkingAccessibilityGuest ServicesZoo PoliciesAnimalsAnimals A-ZSobela Ocean AquariumHelzberg Penguin...",
      "phone": "(816) 595-1234",
      "admission_price": "",
      "website_events_url": "",
      "annual_attendance": null,
      "founded_year": ""
    }
  ],
  "montana": [
    {
      "name": "ZooMontana",
      "url": "https://www.zoomontana.org/",
      "city": "Billings",
      "type": "zoo",
      "size": "small",
      "notable_features": [
        "Native Montana animals",
        "Sensory garden",
        "Educational focus"
      ],
      "admission_required": true,
      "hours": "Welcome to ZooMontanaTake a Walk on the Wild SideRated a Top 10 Zoo in the Country!Hours:Fall Hours (October):Saturday-Sunday: 10:00am - 4:00pmMonday-Friday: 10:00am - 2:00pmWinter Hours (November-Mar...",
      "phone": "406-652-8100",
      "admission_price": "",
      "website_events_url": "",
      "annual_attendance": null,
      "founded_year": "2017"
    }
  ],
  "nebraska": [
    {
      "name": "Henry Doorly Zoo",
      "url": "https://www.omahazoo.com/",
      "city": "Omaha",
      "type": "zoo",
      "size": "large",
      "notable_features": [
        "Desert Dome",
        "Rainforest",
        "Aquarium",
        "World's largest indoor desert"
      ],
      "admission_required": true,
      "hours": "",
      "phone": "(402) 733-8401",
      "admission_price": "",
      "website_events_url": "",
      "annual_attendance": null,
      "founded_year": ""
    },
    {
      "name": "Lincoln Children's Zoo",
      "url": "https://www.lincolnzoo.org/",
      "city": "Lincoln",
      "type": "zoo",
      "size": "small",
      "notable_features": [
        "Children focused",
        "Interactive experiences",
        "Educational programs"
      ],
      "admission_required": true,
      "hours": "",
      "phone": "(402) 475-6741",
      "admission_price": "",
      "website_events_url": "",
      "annual_attendance": null,
      "founded_year": ""
    }
  ],
  "nevada": [
    {
      "name": "Sierra Safari Zoo",
      "url": "https://www.sierrasafarizoo.org/",
      "city": "Reno",
      "type": "zoo",
      "size": "small",
      "notable_features": [
        "Walk-through exhibits",
        "Educational programs",
        "Local wildlife focus"
      ],
      "admission_required": true,
      "hours": "",
      "phone": "",
      "admission_price": "",
      "website_events_url": "",
      "annual_attendance": null,
      "founded_year": ""
    }
  ],
  "new hampshire": [
    {
      "name": "Charmingfare Farm",
      "url": "https://www.charmingfare.com/",
      "city": "Candia",
      "type": "farm_zoo",
      "size": "small",
      "notable_features": [
        "Petting zoo",
        "Farm animals",
        "Educational programs"
      ],
      "admission_required": true,
      "hours": "",
      "phone": "",
      "admission_price": "",
      "website_events_url": "",
      "annual_attendance": null,
      "founded_year": ""
    }
  ],
  "new jersey": [
    {
      "name": "Turtle Back Zoo",
      "url": "https://www.turtlebackzoo.com/",
      "city": "West Orange",
      "type": "zoo",
      "size": "medium",
      "notable_features": [
        "Essex County Turtle Back Zoo",
        "Sea Lion training",
        "Carousel"
      ],
      "admission_required": true,
      "hours": "Open from 10:00am - 4:00pm Last admission : 4pm",
      "phone": "973-731-5800",
      "admission_price": "",
      "website_events_url": "",
      "annual_attendance": null,
      "founded_year": "2011"
    },
    {
      "name": "Cape May County Zoo",
      "url": "https://www.capemaycountyzoo.com/",
      "city": "Cape May Court House",
      "type": "zoo",
      "size": "medium",
      "notable_features": [
        "Free admission",
        "African Savanna",
        "World of Birds"
      ],
      "admission_required": false,
      "hours": "",
      "phone": "",
      "admission_price": "",
      "website_events_url": "",
      "annual_attendance": null,
      "founded_year": "1978"
    }
  ],
  "new mexico": [
    {
      "name": "ABQ BioPark Zoo",
      "url": "https://www.cabq.gov/arks/",
      "city": "Albuquerque",
      "type": "zoo",
      "size": "medium",
      "notable_features": [
        "Desert animals",
        "Aquarium attached",
        "Conservation programs"
      ],
      "admission_required": true,
      "hours": "",
      "phone": "",
      "admission_price": "",
      "website_events_url": "",
      "annual_attendance": null,
      "founded_year": ""
    }
  ],
  "new york": [
    {
      "name": "Bronx Zoo",
      "url": "https://bronxzoo.com/",
      "city": "Bronx",
      "type": "zoo",
      "size": "large",
      "notable_features": [
        "Congo Gorilla Forest",
        "Tiger Mountain",
        "World's largest metropolitan zoo"
      ],
      "admission_required": true,
      "hours": "Monday - FridayWeekends & Federal HolidaysZoo Opens10:00am10:00amAnimal Exhibits Close4:30pm5:00pmZoo Closes5:00pm5:30pm November 2, 2025 \u2014 April 1, 2026",
      "phone": "(718) 220-5100",
      "admission_price": "",
      "website_events_url": "",
      "annual_attendance": null,
      "founded_year": ""
    },
    {
      "name": "Central Park Zoo",
      "url": "https://centralparkzoo.com/",
      "city": "New York",
      "type": "zoo",
      "size": "small",
      "notable_features": [
        "Manhattan location",
        "Tisch Children's Zoo",
        "Sea lion pool"
      ],
      "admission_required": true,
      "hours": "",
      "phone": "(212) 439-6500",
      "admission_price": "",
      "website_events_url": "",
      "annual_attendance": null,
      "founded_year": ""
    },
    {
      "name": "Buffalo Zoo",
      "url": "https://www.buffalozoo.org/",
      "city": "Buffalo",
      "type": "zoo",
      "size": "medium",
      "notable_features": [
        "Arctic Edge",
        "Vanishing Animals exhibit",
        "Historic carousel"
      ],
      "admission_required": true,
      "hours": "The Buffalo Zoo | Animal Experiences & Event Spaces | Buffalo, NY Tickets Membership Donate Adopt An Animal Job Openings The Buffalo Zoo Celebrating 150 Years Tickets Membership Donate Adopt Jobs Togg...",
      "phone": "(716) 837-3900",
      "admission_price": "",
      "website_events_url": "",
      "annual_attendance": null,
      "founded_year": "1875"
    },
    {
      "name": "Seneca Park Zoo",
      "url": "https://senecaparkzoo.org/",
      "city": "Rochester",
      "type": "zoo",
      "size": "small",
      "notable_features": [
        "Rocky Coasts",
        "A Step Into Africa",
        "Conservation focus"
      ],
      "admission_required": true,
      "hours": "The Zoo opens at 9:30 a.m. for Zoo members.Open all year long. Closed on Thanksgiving Day, Christmas Day, and New Year\u2019s Day.",
      "phone": "585.336.7200",
      "admission_price": "",
      "website_events_url": "",
      "annual_attendance": null,
      "founded_year": ""
    }
  ],
  "north carolina": [
    {
      "name": "North Carolina Zoo",
      "url": "https://www.nczoo.org/",
      "city": "Asheboro",
      "type": "zoo",
      "size": "large",
      "notable_features": [
        "World's largest natural habitat zoo",
        "Africa and North America regions",
        "Tram system"
      ],
      "admission_required": true,
      "hours": "The North Carolina Zoo - Asheboro, NC | North Carolina Zoo Skip to main content Search Open Today: 9 A.M. - 5 P.M. Location map Learn Saving Wildlife Membership Give Tickets Visit Plan Your Visit Tick...",
      "phone": "800-488-0444",
      "admission_price": "",
      "website_events_url": "",
      "annual_attendance": null,
      "founded_year": ""
    }
  ],
  "north dakota": [
    {
      "name": "Roosevelt Park Zoo",
      "url": "https://www.rooseveltparkzoo.org/",
      "city": "Minot",
      "type": "zoo",
      "size": "small",
      "notable_features": [
        "Northern plains animals",
        "Conservation education",
        "Family friendly"
      ],
      "admission_required": true,
      "hours": "",
      "phone": "",
      "admission_price": "",
      "website_events_url": "",
      "annual_attendance": null,
      "founded_year": ""
    }
  ],
  "ohio": [
    {
      "name": "Cincinnati Zoo",
      "url": "https://cincinnatizoo.org/",
      "city": "Cincinnati",
      "type": "zoo",
      "size": "large",
      "notable_features": [
        "Historic zoo",
        "Hippo Cove",
        "Conservation research center"
      ],
      "admission_required": true,
      "hours": "Where to Stay Celebrate the Cincinnati Zoo & Botanical Garden\u2019s 150th anniversary and plan a visit today! Today at the ZooToday\u2019s Hours: 10:00am \u2013 5:00pm Early Entry for Members begin at 9:00am Hours ...",
      "phone": "(513) 281-4700",
      "admission_price": "",
      "website_events_url": "",
      "annual_attendance": null,
      "founded_year": "1978"
    },
    {
      "name": "Cleveland Metroparks Zoo",
      "url": "https://www.clevelandmetroparks.com/zoo",
      "city": "Cleveland",
      "type": "zoo",
      "size": "large",
      "notable_features": [
        "RainForest",
        "African Savanna",
        "Australian Adventure"
      ],
      "admission_required": true,
      "hours": "",
      "phone": "440.331.5530",
      "admission_price": "",
      "website_events_url": "",
      "annual_attendance": null,
      "founded_year": ""
    },
    {
      "name": "Columbus Zoo",
      "url": "https://www.columbuszoo.org/",
      "city": "Powell",
      "type": "zoo",
      "size": "large",
      "notable_features": [
        "Heart of Africa",
        "Adventure Cove",
        "Jack Hanna association"
      ],
      "admission_required": true,
      "hours": "",
      "phone": "(614) 645-3400",
      "admission_price": "",
      "website_events_url": "",
      "annual_attendance": null,
      "founded_year": ""
    },
    {
      "name": "Toledo Zoo",
      "url": "https://www.toledozoo.org/",
      "city": "Toledo",
      "type": "zoo",
      "size": "medium",
      "notable_features": [
        "Aquarium",
        "Kingdom of the Apes",
        "Historic Works Progress Administration architecture"
      ],
      "admission_required": true,
      "hours": "Open dailyMon. - Wed., Sat., Sun admission 10 a.m. \u2013 4 p.m., Zoo closes at 5 p.m.Thurs. & Fri. admission 10 a.m. \u2013 8 p.m., Zoo closes at 9 p.m.Zoo closing at 5 p.m. on Thurs, Oct. 23. Member Mornings,...",
      "phone": "419-385-5721",
      "admission_price": "",
      "website_events_url": "",
      "annual_attendance": null,
      "founded_year": ""
    }
  ],
  "oklahoma": [
    {
      "name": "Oklahoma City Zoo",
      "url": "https://www.okczoo.org/",
      "city": "Oklahoma City",
      "type": "zoo",
      "size": "large",
      "notable_features": [
        "Great EscApe",
        "Cat Forest",
        "Sanctuary Asia"
      ],
      "admission_required": true,
      "hours": "Today's Hours 9:00 AM - 5:00 PM",
      "phone": "405-424-3344",
      "admission_price": "",
      "website_events_url": "",
      "annual_attendance": null,
      "founded_year": ""
    },
    {
      "name": "Tulsa Zoo",
      "url": "https://www.tulsazoo.org/",
      "city": "Tulsa",
      "type": "zoo",
      "size": "large",
      "notable_features": [
        "Conservation research",
        "Children's Zoo International",
        "Oxley Nature Center"
      ],
      "admission_required": true,
      "hours": "Attraction Hoursadd ONEOK Safari Train: 9 am - 4:45 pm Arvest Wildlife Carousel: 9 am - 4:45 pm Hardesty Gem Dig & Sluice: 9 am - 4:45 pm Giraffe Feedings: Closed",
      "phone": "(918) 669-6600",
      "admission_price": "",
      "website_events_url": "",
      "annual_attendance": null,
      "founded_year": ""
    }
  ],
  "oregon": [
    {
      "name": "Oregon Zoo",
      "url": "https://www.oregonzoo.org/",
      "city": "Portland",
      "type": "zoo",
      "size": "large",
      "notable_features": [
        "Elephant Lands",
        "Predators of the Serengeti",
        "Conservation programs"
      ],
      "admission_required": true,
      "hours": "Today's hours: 9:30 a.m. to 4:30 p.m. (last entry 3:30 p.m.)",
      "phone": "503.226.1561",
      "admission_price": "",
      "website_events_url": "",
      "annual_attendance": null,
      "founded_year": "1888"
    }
  ],
  "pennsylvania": [
    {
      "name": "Philadelphia Zoo",
      "url": "https://www.philadelphiazoo.org/",
      "city": "Philadelphia",
      "type": "zoo",
      "size": "large",
      "notable_features": [
        "America's first zoo",
        "Zoo360 animal exploration trails",
        "KidZooU"
      ],
      "admission_required": true,
      "hours": "Explore the Naturehood The Zoo is currently open daily from 9:30 AM to 5 PM. Please note that while we work to improve your Zoo, some pathways may temporarily shift, some areas may be closed, and some...",
      "phone": "",
      "admission_price": "",
      "website_events_url": "",
      "annual_attendance": null,
      "founded_year": ""
    },
    {
      "name": "Pittsburgh Zoo",
      "url": "https://www.pittsburghzoo.org/",
      "city": "Pittsburgh",
      "type": "zoo",
      "size": "large",
      "notable_features": [
        "PPG Aquarium",
        "Polar Bear & Penguin Point",
        "Highland Park location"
      ],
      "admission_required": true,
      "hours": "scheduleToday's Zoo Hours: 9:30 AM - 5:30 PM Last Admission: 4:30 pm Main MenuPlan Your Visit",
      "phone": "412-665-3640",
      "admission_price": "",
      "website_events_url": "",
      "annual_attendance": null,
      "founded_year": "1967"
    },
    {
      "name": "Erie Zoo",
      "url": "https://www.eriezoo.org/",
      "city": "Erie",
      "type": "zoo",
      "size": "small",
      "notable_features": [
        "Children's zoo",
        "Tiger exhibit",
        "Conservation education"
      ],
      "admission_required": true,
      "hours": "Visitor Info at a Glance HOURS ZOO GROUNDSOpen Daily 10am-5pm (last admission 4:15pm) from March 1st-November 30th The Zoo will be closing at 2pm on Thursday, September 25th for a private event and at...",
      "phone": "(814) 864-4091",
      "admission_price": "",
      "website_events_url": "",
      "annual_attendance": null,
      "founded_year": ""
    }
  ],
  "rhode island": [
    {
      "name": "Roger Williams Park Zoo",
      "url": "https://www.rwpzoo.org/",
      "city": "Providence",
      "type": "zoo",
      "size": "medium",
      "notable_features": [
        "Farmyard",
        "Marco Polo's Adventure Trek",
        "Conservation programs"
      ],
      "admission_required": true,
      "hours": "Today's Zoo Hours 10:00 AM - 4:00 PM",
      "phone": "(401) 785-3510",
      "admission_price": "",
      "website_events_url": "",
      "annual_attendance": null,
      "founded_year": ""
    }
  ],
  "south carolina": [
    {
      "name": "Riverbanks Zoo",
      "url": "https://www.riverbanks.org/",
      "city": "Columbia",
      "type": "zoo",
      "size": "large",
      "notable_features": [
        "Riverbanks Botanical Garden",
        "Gorilla Base Camp",
        "Conservation research"
      ],
      "admission_required": true,
      "hours": "Today\u2019s Hours :9:00am \u2013 5:00pm Tickets",
      "phone": "803.779.8717",
      "admission_price": "",
      "website_events_url": "",
      "annual_attendance": null,
      "founded_year": "1973"
    },
    {
      "name": "Greenville Zoo",
      "url": "https://www.greenvillezoo.com/",
      "city": "Greenville",
      "type": "zoo",
      "size": "small",
      "notable_features": [
        "Cleveland Park location",
        "Reptile building",
        "Conservation focus"
      ],
      "admission_required": true,
      "hours": "",
      "phone": "",
      "admission_price": "",
      "website_events_url": "",
      "annual_attendance": null,
      "founded_year": ""
    }
  ],
  "south dakota": [
    {
      "name": "Great Plains Zoo",
      "url": "https://www.gpzoo.org/",
      "city": "Sioux Falls",
      "type": "zoo",
      "size": "medium",
      "notable_features": [
        "Delbridge Museum",
        "Conservation research",
        "Children's zoo"
      ],
      "admission_required": true,
      "hours": "",
      "phone": "",
      "admission_price": "",
      "website_events_url": "",
      "annual_attendance": null,
      "founded_year": ""
    }
  ],
  "tennessee": [
    {
      "name": "Nashville Zoo",
      "url": "https://www.nashvillezoo.org/",
      "city": "Nashville",
      "type": "zoo",
      "size": "large",
      "notable_features": [
        "Grassmere Historic Home",
        "Jungle Gym",
        "Conservation programs"
      ],
      "admission_required": true,
      "hours": "Hours of Operation October 14, 2025 - March 5, 2026 | 9:00 am - 4:00 pmMarch 6, 2026 - October 12, 2026 | 9:00 am - 6:00 pm Learn More",
      "phone": "615-833-1534",
      "admission_price": "",
      "website_events_url": "",
      "annual_attendance": null,
      "founded_year": ""
    },
    {
      "name": "Memphis Zoo",
      "url": "https://www.memphiszoo.org/",
      "city": "Memphis",
      "type": "zoo",
      "size": "large",
      "notable_features": [
        "Giant pandas",
        "Teton Trek",
        "Cat Country"
      ],
      "admission_required": true,
      "hours": "",
      "phone": "",
      "admission_price": "",
      "website_events_url": "",
      "annual_attendance": null,
      "founded_year": ""
    },
    {
      "name": "Knoxville Zoo",
      "url": "https://www.knoxvillezoo.org/",
      "city": "Knoxville",
      "type": "zoo",
      "size": "medium",
      "notable_features": [
        "Clayton Family Kids Cove",
        "Red panda habitat",
        "Conservation programs"
      ],
      "admission_required": true,
      "hours": "",
      "phone": "865.637.5331",
      "admission_price": "",
      "website_events_url": "",
      "annual_attendance": null,
      "founded_year": ""
    }
  ],
  "texas": [
    {
      "name": "Houston Zoo",
      "url": "https://www.houstonzoo.org/",
      "city": "Houston",
      "type": "zoo",
      "size": "large",
      "notable_features": [
        "African Forest",
        "Kipp Aquarium",
        "Conservation research"
      ],
      "admission_required": true,
      "hours": "Daytime Admission Hours The Houston Zoo is open from 9:00 a.m. \u2013 5:00 p.m. Last entry is at 4:00 p.m. Open 7 days a week Online reservations for timed tickets are required for all non-member guests. M...",
      "phone": "713-533-6500",
      "admission_price": "",
      "website_events_url": "",
      "annual_attendance": null,
      "founded_year": ""
    },
    {
      "name": "Dallas Zoo",
      "url": "https://www.dallaszoo.com/",
      "city": "Dallas",
      "type": "zoo",
      "size": "large",
      "notable_features": [
        "Giants of the Savanna",
        "Wilds of Africa",
        "Children's Aquarium"
      ],
      "admission_required": true,
      "hours": "",
      "phone": "469.554.7500",
      "admission_price": "",
      "website_events_url": "",
      "annual_attendance": null,
      "founded_year": "1888"
    },
    {
      "name": "San Antonio Zoo",
      "url": "https://sazoo.org/",
      "city": "San Antonio",
      "type": "zoo",
      "size": "large",
      "notable_features": [
        "Brackenridge Park location",
        "Big Cat Valley",
        "Amazonia"
      ],
      "admission_required": true,
      "hours": "",
      "phone": "(210)734-7184",
      "admission_price": "",
      "website_events_url": "",
      "annual_attendance": null,
      "founded_year": "1966"
    },
    {
      "name": "Fort Worth Zoo",
      "url": "https://www.fortworthzoo.org/",
      "city": "Fort Worth",
      "type": "zoo",
      "size": "large",
      "notable_features": [
        "Museum of Living Art",
        "African Savanna",
        "Texas Wild!"
      ],
      "admission_required": true,
      "hours": "",
      "phone": "(817) 759-7555",
      "admission_price": "",
      "website_events_url": "",
      "annual_attendance": null,
      "founded_year": ""
    },
    {
      "name": "Austin Zoo",
      "url": "https://austinzoo.org/",
      "city": "Austin",
      "type": "wildlife_rescue",
      "size": "medium",
      "notable_features": [
        "Animal rescue focus",
        "Train rides",
        "Educational programs"
      ],
      "admission_required": true,
      "hours": "",
      "phone": "",
      "admission_price": "",
      "website_events_url": "",
      "annual_attendance": null,
      "founded_year": ""
    }
  ],
  "utah": [
    {
      "name": "Hogle Zoo",
      "url": "https://www.hoglezoo.org/",
      "city": "Salt Lake City",
      "type": "zoo",
      "size": "medium",
      "notable_features": [
        "Rocky Shores",
        "African Savanna",
        "Conservation programs"
      ],
      "admission_required": true,
      "hours": "",
      "phone": "(801) 584-1700",
      "admission_price": "",
      "website_events_url": "",
      "annual_attendance": null,
      "founded_year": "1979"
    }
  ],
  "vermont": [
    {
      "name": "VINS Nature Center",
      "url": "https://vinsweb.org/",
      "city": "Quechee",
      "type": "nature_center",
      "size": "small",
      "notable_features": [
        "Birds of prey",
        "Wildlife rehabilitation",
        "Educational programs"
      ],
      "admission_required": true,
      "hours": "Center for Wild Bird Rehabilitation Hours & Details The Center for Wild Bird Rehabilitation is open to receive injured birds from 8:00am \u2013 4:00pm daily. Please call to alert staff that you are bringin...",
      "phone": "802.359.5000",
      "admission_price": "",
      "website_events_url": "",
      "annual_attendance": null,
      "founded_year": "1972"
    }
  ],
  "virginia": [
    {
      "name": "Virginia Zoo",
      "url": "https://www.virginiazoo.org/",
      "city": "Norfolk",
      "type": "zoo",
      "size": "medium",
      "notable_features": [
        "Trail of the Tiger",
        "Africa - Okavango Delta",
        "Conservation programs"
      ],
      "admission_required": true,
      "hours": "Open daily from 9:30am - 4pm 3500 Granby St Norfolk, VA 23504 (757) 441-2374",
      "phone": "(757) 441-2374",
      "admission_price": "",
      "website_events_url": "",
      "annual_attendance": null,
      "founded_year": "1987"
    },
    {
      "name": "Metro Richmond Zoo",
      "url": "https://www.metrorichmondzoo.com/",
      "city": "Moseley",
      "type": "zoo",
      "size": "medium",
      "notable_features": [
        "Safari village",
        "Snow leopards",
        "Giraffe feeding"
      ],
      "admission_required": true,
      "hours": "} Hours The zoo is open Monday-Saturday from 9:30 AM to 5:00 PM. We are closed on Sundays.",
      "phone": "(804) 739-5666",
      "admission_price": "",
      "website_events_url": "",
      "annual_attendance": null,
      "founded_year": ""
    }
  ],
  "washington": [
    {
      "name": "Woodland Park Zoo",
      "url": "https://www.zoo.org/",
      "city": "Seattle",
      "type": "zoo",
      "size": "large",
      "notable_features": [
        "Trail of Vines",
        "Northern Trail",
        "Tropical Rain Forest"
      ],
      "admission_required": true,
      "hours": "OPEN DAILY 9:30 a.m. \u2013 4:00 p.m.",
      "phone": "206.548.2500",
      "admission_price": "",
      "website_events_url": "",
      "annual_attendance": null,
      "founded_year": "1899"
    },
    {
      "name": "Point Defiance Zoo",
      "url": "https://www.pdza.org/",
      "city": "Tacoma",
      "type": "zoo",
      "size": "medium",
      "notable_features": [
        "Pacific Seas Aquarium",
        "Asian Forest Sanctuary",
        "Red Wolf Woods"
      ],
      "admission_required": true,
      "hours": "",
      "phone": "",
      "admission_price": "",
      "website_events_url": "",
      "annual_attendance": null,
      "founded_year": ""
    }
  ],
  "west virginia": [
    {
      "name": "Oglebay Good Zoo",
      "url": "https://www.oglebaygoodzioo.org/",
      "city": "Wheeling",
      "type": "zoo",
      "size": "small",
      "notable_features": [
        "Train rides",
        "Conservation education",
        "Benedum Planetarium nearby"
      ],
      "admission_required": true,
      "hours": "",
      "phone": "",
      "admission_price": "",
      "website_events_url": "",
      "annual_attendance": null,
      "founded_year": ""
    }
  ],
  "wisconsin": [
    {
      "name": "Milwaukee County Zoo",
      "url": "https://www.milwaukeezoo.org/",
      "city": "Milwaukee",
      "type": "zoo",
      "size": "large",
      "notable_features": [
        "Humboldt penguins",
        "Adventure Africa",
        "Zoomobile tours"
      ],
      "admission_required": true,
      "hours": "9:30 AM-4:30 PM WEEKDAYS9:30 AM-4:30 PM WEEKENDSSEE ALL HOURS",
      "phone": "1805580023",
      "admission_price": "",
      "website_events_url": "",
      "annual_attendance": null,
      "founded_year": ""
    },
    {
      "name": "Menominee Zoo",
      "url": "https://www.menomineezoo.org/",
      "city": "Menominee",
      "type": "zoo",
      "size": "small",
      "notable_features": [
        "Native American cultural connection",
        "Wolf exhibit",
        "Educational focus"
      ],
      "admission_required": true,
      "hours": "",
      "phone": "",
      "admission_price": "",
      "website_events_url": "",
      "annual_attendance": null,
      "founded_year": ""
    }
  ]
}